{
  "type": "FeatureCollection",
  "features": [
    {
      "type": "Feature",
      "geometry": {
        "type": "Point",
        "coordinates": [
          4.898153,
          52.36247
        ]
      },
      "properties": {
        "id": "https://adamlink.nl/geo/address/A227476",
        "label": "Z 54 (Amstelveld)",
        "year": "1870"
      }
    },
    {
      "type": "Feature",
      "geometry": {
        "type": "Point",
        "coordinates": [
          4.889939,
          52.368252
        ]
      },
      "properties": {
        "id": "https://adamlink.nl/geo/address/A227823",
        "label": "D 305 a (Handboogstraat)",
        "year": "1870"
      }
    },
    {
      "type": "Feature",
      "geometry": {
        "type": "Point",
        "coordinates": [
          4.891153,
          52.369729
        ]
      },
      "properties": {
        "id": "https://adamlink.nl/geo/address/A227920",
        "label": "E 274 a (Kalverstraat)",
        "year": "1870"
      }
    },
    {
      "type": "Feature",
      "geometry": {
        "type": "Point",
        "coordinates": [
          4.892972,
          52.362736
        ]
      },
      "properties": {
        "id": "https://adamlink.nl/geo/address/A227991",
        "label": "AA 687 b (Kerkstraat)",
        "year": "1870"
      }
    },
    {
      "type": "Feature",
      "geometry": {
        "type": "Point",
        "coordinates": [
          4.893661,
          52.362794
        ]
      },
      "properties": {
        "id": "https://adamlink.nl/geo/address/A227992",
        "label": "AA 704 a (Kerkstraat)",
        "year": "1870"
      }
    },
    {
      "type": "Feature",
      "geometry": {
        "type": "Point",
        "coordinates": [
          4.896186,
          52.367776
        ]
      },
      "properties": {
        "id": "https://adamlink.nl/geo/address/A228012",
        "label": "C 484 a (Kloveniersburgwal)",
        "year": "1870"
      }
    },
    {
      "type": "Feature",
      "geometry": {
        "type": "Point",
        "coordinates": [
          4.900927,
          52.368178
        ]
      },
      "properties": {
        "id": "https://adamlink.nl/geo/address/A228014",
        "label": "P 224 a (Korte Houtstraat)",
        "year": "1870"
      }
    },
    {
      "type": "Feature",
      "geometry": {
        "type": "Point",
        "coordinates": [
          4.900968,
          52.368161
        ]
      },
      "properties": {
        "id": "https://adamlink.nl/geo/address/A228015",
        "label": "P 224 b (Korte Houtstraat Isaaksgang)",
        "year": "1870"
      }
    },
    {
      "type": "Feature",
      "geometry": {
        "type": "Point",
        "coordinates": [
          4.901,
          52.368147
        ]
      },
      "properties": {
        "id": "https://adamlink.nl/geo/address/A228016",
        "label": "P 224 c (Korte Houtstraat)",
        "year": "1870"
      }
    },
    {
      "type": "Feature",
      "geometry": {
        "type": "Point",
        "coordinates": [
          4.901,
          52.368147
        ]
      },
      "properties": {
        "id": "https://adamlink.nl/geo/address/A228017",
        "label": "P 224 e (Korte Houtstraat Izaaksgang)",
        "year": "1870"
      }
    },
    {
      "type": "Feature",
      "geometry": {
        "type": "Point",
        "coordinates": [
          4.90141,
          52.367815
        ]
      },
      "properties": {
        "id": "https://adamlink.nl/geo/address/A228217",
        "label": "P 332 a (Lange Houtstraat)",
        "year": "1870"
      }
    },
    {
      "type": "Feature",
      "geometry": {
        "type": "Point",
        "coordinates": [
          4.901467,
          52.367866
        ]
      },
      "properties": {
        "id": "https://adamlink.nl/geo/address/A228217",
        "label": "P 332 a (Lange Houtstraat)",
        "year": "1870"
      }
    },
    {
      "type": "Feature",
      "geometry": {
        "type": "Point",
        "coordinates": [
          4.9015,
          52.367898
        ]
      },
      "properties": {
        "id": "https://adamlink.nl/geo/address/A228217",
        "label": "P 332 a (Lange Houtstraat)",
        "year": "1870"
      }
    },
    {
      "type": "Feature",
      "geometry": {
        "type": "Point",
        "coordinates": [
          4.901541,
          52.367936
        ]
      },
      "properties": {
        "id": "https://adamlink.nl/geo/address/A228217",
        "label": "P 332 a (Lange Houtstraat)",
        "year": "1870"
      }
    },
    {
      "type": "Feature",
      "geometry": {
        "type": "Point",
        "coordinates": [
          4.90171,
          52.367774
        ]
      },
      "properties": {
        "id": "https://adamlink.nl/geo/address/A228218",
        "label": "P 335 a (Lange Houtstraat)",
        "year": "1870"
      }
    },
    {
      "type": "Feature",
      "geometry": {
        "type": "Point",
        "coordinates": [
          4.901753,
          52.367756
        ]
      },
      "properties": {
        "id": "https://adamlink.nl/geo/address/A228219",
        "label": "P 335 b (Lange Houtstraat)",
        "year": "1870"
      }
    },
    {
      "type": "Feature",
      "geometry": {
        "type": "Point",
        "coordinates": [
          4.889241,
          52.369517
        ]
      },
      "properties": {
        "id": "https://adamlink.nl/geo/address/A228326",
        "label": "F 58 a (NZ Voorburgwal)",
        "year": "1870"
      }
    },
    {
      "type": "Feature",
      "geometry": {
        "type": "Point",
        "coordinates": [
          4.893971,
          52.368458
        ]
      },
      "properties": {
        "id": "https://adamlink.nl/geo/address/A228346",
        "label": "B 55 a (Oude Turfmarkt)",
        "year": "1870"
      }
    },
    {
      "type": "Feature",
      "geometry": {
        "type": "Point",
        "coordinates": [
          4.88895,
          52.362328
        ]
      },
      "properties": {
        "id": "https://adamlink.nl/geo/address/A228588",
        "label": "BB 414 a (Prinsengracht)",
        "year": "1870"
      }
    },
    {
      "type": "Feature",
      "geometry": {
        "type": "Point",
        "coordinates": [
          4.892991,
          52.361772
        ]
      },
      "properties": {
        "id": "https://adamlink.nl/geo/address/A228589",
        "label": "AA 624 c (Prinsengracht)",
        "year": "1870"
      }
    },
    {
      "type": "Feature",
      "geometry": {
        "type": "Point",
        "coordinates": [
          4.892518,
          52.367675
        ]
      },
      "properties": {
        "id": "https://adamlink.nl/geo/address/A228789",
        "label": "D 73 a (St Jorissteeg)",
        "year": "1870"
      }
    },
    {
      "type": "Feature",
      "geometry": {
        "type": "Point",
        "coordinates": [
          4.898044,
          52.36121
        ]
      },
      "properties": {
        "id": "https://adamlink.nl/geo/address/A228924",
        "label": "Z 262 a (Utrechtschedwarsstraat)",
        "year": "1870"
      }
    },
    {
      "type": "Feature",
      "geometry": {
        "type": "Point",
        "coordinates": [
          4.897975,
          52.361198
        ]
      },
      "properties": {
        "id": "https://adamlink.nl/geo/address/A228925",
        "label": "Z 262 b (Utrechtschedwarsstraat)",
        "year": "1870"
      }
    },
    {
      "type": "Feature",
      "geometry": {
        "type": "Point",
        "coordinates": [
          4.897917,
          52.361188
        ]
      },
      "properties": {
        "id": "https://adamlink.nl/geo/address/A228926",
        "label": "Z 262 c (Utrechtschedw Straat)",
        "year": "1870"
      }
    },
    {
      "type": "Feature",
      "geometry": {
        "type": "Point",
        "coordinates": [
          4.897093,
          52.361152
        ]
      },
      "properties": {
        "id": "https://adamlink.nl/geo/address/A228927",
        "label": "Z 290 (Utrechtschedwarsstraat)",
        "year": "1870"
      }
    },
    {
      "type": "Feature",
      "geometry": {
        "type": "Point",
        "coordinates": [
          4.897165,
          52.361165
        ]
      },
      "properties": {
        "id": "https://adamlink.nl/geo/address/A228927",
        "label": "Z 290 (Utrechtschedwarsstraat)",
        "year": "1870"
      }
    },
    {
      "type": "Feature",
      "geometry": {
        "type": "Point",
        "coordinates": [
          4.897039,
          52.361142
        ]
      },
      "properties": {
        "id": "https://adamlink.nl/geo/address/A228927",
        "label": "Z 290 (Utrechtschedwarsstraat)",
        "year": "1870"
      }
    },
    {
      "type": "Feature",
      "geometry": {
        "type": "Point",
        "coordinates": [
          4.897228,
          52.361177
        ]
      },
      "properties": {
        "id": "https://adamlink.nl/geo/address/A228927",
        "label": "Z 290 (Utrechtschedwarsstraat)",
        "year": "1870"
      }
    }
  ]
}